index,world_rank,university_name,country,year,citations,research,teaching,total_score,student_staff_ratio,international_students,female_male_ratio,lat,lon
0,1,Harvard University,United States of America,2011,98.8,98.7,99.7,96.1,8.9,0.25,0.0,42.380098,-71.116629
1,2,California Institute of Technology,United States of America,2011,99.9,98.0,97.7,96.0,6.9,0.27,0.33,34.137658,-118.125269
2,3,Massachusetts Institute of Technology,United States of America,2011,99.9,91.4,97.8,95.6,9.0,0.33,0.37,42.360091,-71.09416
3,4,Stanford University,United States of America,2011,99.2,98.1,98.3,94.3,7.8,0.22,0.42,37.427475,-122.169719
4,5,Princeton University,United States of America,2011,99.9,95.4,90.9,94.2,8.4,0.27,0.45,40.343989,-74.651448
5,6,University of Cambridge,United Kingdom,2011,94.0,94.1,90.5,91.2,11.8,0.34,0.46,52.204267,0.114908
6,6,University of Oxford,United Kingdom,2011,95.1,93.9,88.2,91.2,11.6,0.34,0.46,51.75663400000001,-1.254704
7,8,"University of California, Berkeley",United States of America,2011,97.8,99.3,84.2,91.1,16.4,0.15,0.5,37.871899,-122.25854
8,9,Imperial College London,United Kingdom,2011,88.3,94.5,89.2,90.6,11.7,0.51,0.37,51.4988,-0.174877
9,10,Yale University,United States of America,2011,91.5,89.7,92.1,89.5,4.4,0.2,0.5,41.316324,-72.92234300000001
10,11,"University of California, Los Angeles",United States of America,2011,93.2,92.9,83.0,87.7,10.3,0.15,0.52,34.068921,-118.445181
11,12,University of Chicago,United States of America,2011,96.9,87.9,79.1,86.9,6.9,0.21,0.42,41.788608,-87.598713
12,13,Johns Hopkins University,United States of America,2011,92.3,89.2,80.9,86.4,3.6,0.23,0.5,39.329901,-76.620518
13,14,Cornell University,United States of America,2011,88.1,88.8,82.2,83.9,10.2,0.19,0.48,42.453449,-76.47350300000002
14,15,ETH Zurich – Swiss Federal Institute of Technology Zurich,Switzerland,2011,83.1,87.8,77.5,83.4,14.7,0.37,0.31,47.376313,8.54767
15,15,University of Michigan,United States of America,2011,84.1,89.1,83.9,83.4,9.0,0.16,0.48,42.278044,-83.738224
16,17,University of Toronto,Canada,2011,82.2,87.9,75.8,82.0,19.5,0.15,0.0,43.662892,-79.395656
17,18,Columbia University,United States of America,2011,92.6,73.8,73.8,81.0,5.9,0.28,0.0,40.807536,-73.96257299999998
18,19,University of Pennsylvania,United States of America,2011,93.6,82.7,71.8,79.5,6.5,0.2,0.51,-75.193214,-75.193214
19,20,Carnegie Mellon University,United States of America,2011,95.7,79.3,70.3,79.3,13.1,0.35,0.39,40.443466,-79.943457
20,21,University of Hong Kong,Hong Kong,2011,96.1,71.4,68.4,79.2,17.6,0.38,0.53,22.282999,114.137085
21,22,University College London,United Kingdom,2011,80.6,81.6,74.0,78.4,10.7,0.46,0.56,51.524559,-0.13404000000000002
22,23,University of Washington,United States of America,2011,95.9,77.1,68.2,78.0,11.8,0.13,0.53,47.655335,-122.30352
23,24,Duke University,United States of America,2011,92.3,71.5,66.8,76.5,4.8,0.17,0.49,36.001426,-78.938229
24,25,Northwestern University,United States of America,2011,95.3,68.8,64.5,75.9,13.8,0.15,0.48,42.056459,-87.675267
25,26,University of Tokyo,Japan,2011,58.1,91.9,87.7,75.6,5.7,0.1,0.0,35.712677,139.761989
26,27,Georgia Institute of Technology,United States of America,2011,83.2,72.6,67.9,75.3,20.1,0.26,0.31,33.775618,-84.39628499999998
27,28,Pohang University of Science and Technology,South Korea,2011,96.5,62.5,69.5,75.1,10.1,0.04,0.2,36.013886,129.323184
28,29,"University of California, Santa Barbara",United States of America,2011,98.8,68.0,56.6,75.0,27.3,0.11,0.52,34.413963,-119.848947
29,30,University of British Columbia,Canada,2011,80.3,74.8,65.1,73.8,17.6,0.25,0.54,49.260605,-123.245994
30,30,University of North Carolina at Chapel Hill,United States of America,2011,85.0,75.1,70.9,73.8,7.3,0.08,0.58,35.904912,-79.046913
31,32,"University of California, San Diego",United States of America,2011,90.8,76.3,59.8,73.2,6.5,0.11,0.48,32.88006,-117.234014
32,33,University of Illinois at Urbana-Champaign,United States of America,2011,72.9,80.9,68.1,73.0,18.7,0.2,0.47,40.101952,-88.227161
33,34,National University of Singapore,Singapore,2011,78.7,72.6,65.5,72.9,15.5,0.34,0.49,1.296643,103.776394
34,35,McGill University,Canada,2011,69.0,74.9,69.0,71.7,13.7,0.23,0.56,45.504785,-73.577151
35,36,University of Melbourne,Australia,2011,83.3,69.2,58.7,71.0,23.7,0.35,0.55,-37.796369,144.961174
36,37,Peking University,China,2011,72.2,61.3,76.4,70.7,8.3,0.14,0.0,39.986913,116.305874
37,38,Washington University in St Louis,United States of America,2011,88.6,63.0,58.9,69.9,5.7,0.17,0.0,38.648789,-90.310796
38,39,École Polytechnique,France,2011,91.4,56.1,57.9,69.5,4.8,0.3,0.18,48.714297,2.211292
39,40,University of Edinburgh,United Kingdom,2011,86.8,61.9,59.9,69.2,14.1,0.36,0.58,55.944516,-3.189241
40,41,Hong Kong University of Science and Technology,Hong Kong,2011,98.2,51.8,50.4,69.0,23.8,0.36,0.0,22.3364,114.265466
41,42,École Normale Supérieure,France,2011,95.7,48.2,66.8,68.6,7.9,0.2,0.46,48.842206,2.345169
42,43,Australian National University,Australia,2011,81.0,62.4,51.9,67.0,19.2,0.35,0.52,-35.2777,149.118527
43,43,Karolinska Institute,Sweden,2011,62.3,72.7,65.8,67.0,11.5,0.22,0.7,59.348148,18.023658
44,43,University of Göttingen,Germany,2011,92.5,55.9,57.3,67.0,25.6,0.12,0.51,51.540812,9.9374
45,43,University of Wisconsin,United States of America,2011,83.4,64.6,55.5,67.0,,0.0,0.0,43.076592,-89.412487
46,47,Rice University,United States of America,2011,99.1,50.6,57.4,66.9,9.0,0.26,0.44,29.717394,-95.401831
47,48,École Polytechnique Fédérale de Lausanne,Switzerland,2011,83.8,56.1,55.0,66.5,10.5,0.54,0.27,46.519056,6.566758
48,49,"University of California, Irvine",United States of America,2011,91.6,54.7,49.4,66.0,16.1,0.16,0.52,33.640495,-117.844296
49,49,University of Science and Technology of China,China,2011,92.7,48.6,57.5,66.0,7.9,0.02,0.0,31.838698,117.26217
50,51,Vanderbilt University,United States of America,2011,78.1,59.5,64.9,65.9,3.6,0.1,0.52,36.144703,-86.802655
51,52,University of Minnesota,United States of America,2011,76.4,69.1,57.6,65.6,18.0,0.13,0.52,44.97399,-93.227729
52,53,Tufts University,United States of America,2011,83.9,52.3,64.1,65.2,10.0,0.14,0.54,42.407484,-71.119023
53,54,"University of California, Davis",United States of America,2011,68.8,70.7,57.3,65.0,13.9,0.13,0.54,38.538232,-121.76171200000002
54,55,Brown University,United States of America,2011,77.7,57.0,59.7,64.9,10.1,0.19,0.0,41.826772,-71.402548
55,56,University of Massachusetts,United States of America,2011,67.9,72.6,61.3,64.7,13.0,0.11,0.49,42.391157,-72.526712
56,57,Kyoto University,Japan,2011,46.3,77.7,78.9,64.6,5.6,0.07,0.0,35.026244,135.780822
57,58,Tsinghua University,China,2011,52.7,66.6,74.9,64.2,13.7,0.1,0.32,39.999667,116.326444
58,59,Boston University,United States of America,2011,91.4,51.9,53.6,64.0,8.6,0.17,0.58,42.3505,-71.105399
59,60,New York University,United States of America,2011,82.9,50.7,62.0,63.9,6.8,0.19,0.55,40.729513,-73.996461
60,61,Emory University,United States of America,2011,77.8,48.4,63.4,63.0,4.5,0.18,0.56,33.792519,-84.323999
61,61,LMU Munich,Germany,2011,76.4,57.5,59.1,63.0,15.5,0.13,0.62,48.150942,11.582443
62,63,University of Notre Dame,United States of America,2011,89.1,45.1,56.4,62.8,13.8,0.1,0.44,41.705572,-86.235339
63,64,University of Pittsburgh,United States of America,2011,78.3,58.3,58.5,62.7,5.8,0.1,0.51,40.444353,-79.960835
64,65,Case Western Reserve University,United States of America,2011,66.0,53.8,67.2,62.2,6.4,0.17,0.48,41.504341,-81.608384
65,66,Ohio State University,United States of America,2011,67.2,54.9,63.5,62.1,13.4,0.12,0.49,40.01419,-83.030914
66,67,University of Colorado Boulder,United States of America,2011,83.4,58.1,46.4,61.6,16.1,0.08,0.45,40.007581,-105.265942
67,68,University of Bristol,United Kingdom,2011,80.9,53.1,49.6,61.4,14.0,0.25,0.53,51.458417,-2.602979
68,68,"University of California, Santa Cruz",United States of America,2011,99.6,50.4,38.3,61.4,22.7,0.01,0.53,36.991386,-122.060872
69,68,Yeshiva University,United States of America,2011,74.4,46.7,63.5,61.4,5.5,0.07,0.53,40.85066,-73.929866
70,71,University of Sydney,Australia,2011,64.3,61.9,49.8,61.2,20.2,0.28,0.57,-33.888584,151.187347
71,72,University of Virginia,United States of America,2011,68.6,55.4,62.0,61.1,10.2,0.12,0.52,38.03355300000001,-78.507977
72,73,University of Adelaide,Australia,2011,90.5,38.8,46.5,60.7,30.1,0.26,0.48,-34.920603,138.60622800000002
73,73,University of Southern California,United States of America,2011,71.9,48.7,65.4,60.7,12.9,0.2,0.52,34.022352000000005,-118.285117
74,75,William & Mary,United States of America,2011,95.6,36.1,53.1,60.4,11.8,0.07,0.54,37.271674,-76.713378
75,76,Trinity College Dublin,Republic of Ireland,2011,84.4,45.3,47.7,60.3,18.0,0.25,0.57,53.34379300000001,-6.2545720000000005
76,77,King’s College London,United Kingdom,2011,72.1,54.5,48.5,59.7,11.4,0.37,0.61,51.511486,-0.115997
77,78,Stony Brook University,United States of America,2011,85.8,43.6,48.5,59.6,10.9,0.24,0.5,40.912376,-73.123389
78,79,Korea Advanced Institute of Science and Technology (KAIST),South Korea,2011,45.5,63.4,71.3,59.5,10.0,0.09,0.2,36.369392,127.364025
79,79,University of Sussex,United Kingdom,2011,91.6,42.4,42.4,59.5,17.4,0.35,0.54,50.86709000000001,-0.08791399999999999
80,81,The University of Queensland,Australia,2011,69.0,53.4,51.8,59.1,32.7,0.27,0.53,-27.495431,153.01203
81,81,University of York,United Kingdom,2011,81.9,46.2,47.9,59.1,,0.0,0.0,53.945533,-1.056167
82,83,Heidelberg University,Germany,2011,70.3,47.5,59.2,59.0,24.5,0.17,0.55,41.114304,-83.16640699999998
83,83,University of Utah,United States of America,2011,72.0,54.2,55.8,59.0,16.9,0.09,0.45,40.764937,-111.842102
84,85,Durham University,United Kingdom,2011,91.0,44.1,39.8,58.9,15.7,0.24,0.54,54.764986,-1.578203
85,86,London School of Economics and Political Science,United Kingdom,2011,51.6,56.2,62.4,58.3,,0.0,0.0,51.514408,-0.117377
86,87,University of Manchester,United Kingdom,2011,59.2,56.2,56.5,58.0,15.3,0.34,0.52,53.46685,-2.233884
87,88,"Royal Holloway, University of London",United Kingdom,2011,93.2,36.2,37.7,57.9,15.9,0.37,0.57,51.425673,-0.563063
88,89,Lund University,Sweden,2011,67.6,60.8,46.3,57.8,11.5,0.15,0.0,55.711948,13.203493
89,90,University of Southampton,United Kingdom,2011,72.9,47.8,50.8,57.7,13.5,0.29,0.53,50.935742,-1.3966379999999998
90,90,University of Zurich,Switzerland,2011,65.0,47.0,56.6,57.7,6.5,0.19,0.57,47.374322,8.550981
91,90,Wake Forest University,United States of America,2011,79.2,42.9,54.6,57.7,4.6,0.05,0.51,36.13525,-80.276342
92,93,McMaster University,Canada,2011,68.5,58.7,44.7,57.6,19.3,0.15,0.53,43.260879,-79.919225
93,94,University College Dublin,Republic of Ireland,2011,86.3,36.6,42.4,57.5,24.5,0.23,0.0,53.30534399999999,-6.220654
94,95,George Washington University,United States of America,2011,70.2,43.1,60.6,57.3,12.0,0.16,0.56,38.899715,-77.048599
95,95,University of Arizona,United States of America,2011,70.1,52.2,52.4,57.3,12.7,0.08,0.52,32.231885,-110.950109
96,95,University of Basel,Switzerland,2011,78.3,37.1,50.2,57.3,17.3,0.24,0.54,47.560253,7.5826
97,98,"University of Maryland, College Park",United States of America,2011,79.2,48.6,45.4,57.2,8.4,0.09,0.48,38.986918,-76.942554
98,99,Dartmouth College,United States of America,2011,79.7,49.2,44.7,57.1,6.6,0.16,0.47,43.704441,-72.28869300000002
99,100,École Normale Supérieure de Lyon,France,2011,88.8,34.4,51.1,57.0,8.0,0.14,0.49,45.729835,4.826911
100,1,California Institute of Technology,United States of America,2012,99.9,98.2,95.7,94.8,6.9,0.27,0.33,34.137658,-118.125269
101,2,Harvard University,United States of America,2012,99.8,97.4,95.8,93.9,8.9,0.25,0.0,42.380098,-71.116629
102,2,Stanford University,United States of America,2012,99.8,98.9,94.8,93.9,7.8,0.22,0.42,37.427475,-122.169719
103,4,University of Oxford,United Kingdom,2012,97.9,96.6,89.5,93.6,11.6,0.34,0.46,51.75663400000001,-1.254704
104,5,Princeton University,United States of America,2012,100.0,99.1,91.5,92.9,8.4,0.27,0.45,40.343989,-74.651448
105,6,University of Cambridge,United Kingdom,2012,97.3,94.2,90.5,92.4,11.8,0.34,0.46,52.204267,0.114908
106,7,Massachusetts Institute of Technology,United States of America,2012,100.0,87.4,92.7,92.3,9.0,0.33,0.37,42.360091,-71.09416
107,8,Imperial College London,United Kingdom,2012,93.9,88.7,88.8,90.7,11.7,0.51,0.37,51.4988,-0.174877
108,9,University of Chicago,United States of America,2012,99.4,90.8,89.4,90.2,6.9,0.21,0.42,41.788608,-87.598713
109,10,"University of California, Berkeley",United States of America,2012,99.4,99.4,82.8,89.8,16.4,0.15,0.5,37.871899,-122.25854
110,11,Yale University,United States of America,2012,96.7,91.2,92.3,89.1,4.4,0.2,0.5,41.316324,-72.92234300000001
111,12,Columbia University,United States of America,2012,97.8,81.8,89.1,87.5,5.9,0.28,0.0,40.807536,-73.96257299999998
112,13,"University of California, Los Angeles",United States of America,2012,97.3,92.5,85.9,87.3,10.3,0.15,0.52,34.068921,-118.445181
113,14,Johns Hopkins University,United States of America,2012,97.3,86.5,78.9,85.8,3.6,0.23,0.5,39.329901,-76.620518
114,15,ETH Zurich – Swiss Federal Institute of Technology Zurich,Switzerland,2012,87.2,85.8,79.1,85.0,14.7,0.37,0.31,47.376313,8.54767
115,16,University of Pennsylvania,United States of America,2012,97.9,86.1,87.0,84.9,6.5,0.2,0.51,-75.193214,-75.193214
116,17,University College London,United Kingdom,2012,89.0,84.3,77.8,83.2,10.7,0.46,0.56,51.524559,-0.13404000000000002
117,18,University of Michigan,United States of America,2012,94.3,90.0,75.4,82.8,9.0,0.16,0.48,42.278044,-83.738224
118,19,University of Toronto,Canada,2012,86.5,87.4,76.9,81.6,19.5,0.15,0.0,43.662892,-79.395656
119,20,Cornell University,United States of America,2012,93.5,87.2,70.4,80.5,10.2,0.19,0.48,42.453449,-76.47350300000002
120,21,Carnegie Mellon University,United States of America,2012,97.4,79.5,65.7,78.4,13.1,0.35,0.39,40.443466,-79.943457
121,22,Duke University,United States of America,2012,97.4,77.9,62.6,77.4,4.8,0.17,0.49,36.001426,-78.938229
122,22,University of British Columbia,Canada,2012,85.2,78.6,68.6,77.4,17.6,0.25,0.54,49.260605,-123.245994
123,24,Georgia Institute of Technology,United States of America,2012,91.9,73.8,66.6,77.0,20.1,0.26,0.31,33.775618,-84.39628499999998
124,25,University of Washington,United States of America,2012,98.2,74.0,70.8,76.5,11.8,0.13,0.53,47.655335,-122.30352
125,26,Northwestern University,United States of America,2012,98.6,75.5,66.3,76.2,13.8,0.15,0.48,42.056459,-87.675267
126,27,University of Wisconsin-Madison,United States of America,2012,90.6,77.3,74.3,75.8,10.8,0.11,0.51,43.0766,-89.4125
127,28,McGill University,Canada,2012,77.1,78.4,72.8,75.5,13.7,0.23,0.56,45.504785,-73.577151
128,29,University of Texas at Austin,United States of America,2012,89.6,76.1,69.5,74.9,17.4,0.09,0.51,30.2849,-97.7341
129,30,University of Tokyo,Japan,2012,69.1,80.3,86.1,74.3,5.7,0.1,0.0,35.712677,139.761989
130,31,University of Illinois at Urbana-Champaign,United States of America,2012,81.5,81.3,67.9,74.2,18.7,0.2,0.47,40.101952,-88.227161
131,32,Karolinska Institute,Sweden,2012,73.1,73.8,69.9,73.1,11.5,0.22,0.7,59.348148,18.023658
132,33,"University of California, San Diego",United States of America,2012,97.8,72.0,61.4,73.0,6.5,0.11,0.48,32.88006,-117.234014
133,34,University of Hong Kong,Hong Kong,2012,60.5,80.1,74.0,72.3,17.6,0.38,0.53,22.282999,114.137085
134,35,"University of California, Santa Barbara",United States of America,2012,99.9,65.3,55.0,72.1,27.3,0.11,0.52,34.413963,-119.848947
135,36,University of Edinburgh,United Kingdom,2012,92.3,61.4,63.0,72.0,14.1,0.36,0.58,55.944516,-3.189241
136,37,University of Melbourne,Australia,2012,80.7,72.4,62.2,71.9,23.7,0.35,0.55,-37.796369,144.961174
137,38,Australian National University,Australia,2012,72.6,75.1,62.8,71.2,19.2,0.35,0.52,-35.2777,149.118527
138,38,"University of California, Davis",United States of America,2012,83.4,68.7,68.0,71.2,13.9,0.13,0.54,38.538232,-121.76171200000002
139,40,National University of Singapore,Singapore,2012,63.4,79.0,65.7,70.9,15.5,0.34,0.49,1.296643,103.776394
140,41,Washington University in St Louis,United States of America,2012,96.1,58.9,64.0,70.5,5.7,0.17,0.0,38.648789,-90.310796
141,42,University of Minnesota,United States of America,2012,85.4,72.5,66.1,70.0,18.0,0.13,0.52,44.97399,-93.227729
142,43,University of North Carolina at Chapel Hill,United States of America,2012,92.6,62.6,67.6,69.3,7.3,0.08,0.58,35.904912,-79.046913
143,44,New York University,United States of America,2012,92.3,65.4,60.2,69.0,6.8,0.19,0.55,40.729513,-73.996461
144,45,LMU Munich,Germany,2012,84.6,59.9,63.8,67.6,15.5,0.13,0.62,48.150942,11.582443
145,46,École Polytechnique Fédérale de Lausanne,Switzerland,2012,95.3,43.9,53.1,66.3,10.5,0.54,0.27,46.519056,6.566758
146,47,London School of Economics and Political Science,United Kingdom,2012,50.6,75.4,66.4,66.0,,0.0,0.0,51.514408,-0.117377
147,48,University of Manchester,United Kingdom,2012,75.6,61.1,59.0,65.7,15.3,0.34,0.52,53.46685,-2.233884
148,49,Brown University,United States of America,2012,93.9,53.6,59.8,65.6,10.1,0.19,0.0,41.826772,-71.402548
149,49,Peking University,China,2012,51.0,64.1,82.3,65.6,8.3,0.14,0.0,39.986913,116.305874
150,51,Pennsylvania State University,United States of America,2012,83.4,66.7,53.5,64.9,12.4,0.12,0.46,40.7982,-77.8599
151,52,Kyoto University,Japan,2012,56.3,72.0,76.4,64.8,5.6,0.07,0.0,35.026244,135.780822
152,53,Pohang University of Science and Technology,South Korea,2012,92.3,51.9,56.4,64.6,10.1,0.04,0.2,36.013886,129.323184
153,54,Boston University,United States of America,2012,95.6,46.2,60.7,64.2,8.6,0.17,0.58,42.3505,-71.105399
154,55,University of Southern California,United States of America,2012,80.2,48.7,65.8,64.0,12.9,0.2,0.52,34.022352000000005,-118.285117
155,56,King’s College London,United Kingdom,2012,80.9,54.2,49.8,63.2,11.4,0.37,0.61,51.511486,-0.115997
156,57,Ohio State University,United States of America,2012,77.5,56.2,61.8,63.0,13.4,0.12,0.49,40.01419,-83.030914
157,58,University of Sydney,Australia,2012,57.2,65.7,55.4,62.4,20.2,0.28,0.57,-33.888584,151.187347
158,59,University of Pittsburgh,United States of America,2012,88.7,53.9,54.3,62.0,5.8,0.1,0.51,40.444353,-79.960835
159,59,École Normale Supérieure,France,2012,96.4,33.5,56.6,62.0,7.9,0.2,0.46,48.842206,2.345169
160,61,University of Zurich,Switzerland,2012,78.4,45.9,56.7,61.9,6.5,0.19,0.57,47.374322,8.550981
161,62,Hong Kong University of Science and Technology,Hong Kong,2012,71.0,58.6,51.0,61.7,23.8,0.36,0.0,22.3364,114.265466
162,63,École Polytechnique,France,2012,89.1,38.8,50.4,61.5,4.8,0.3,0.18,48.714297,2.211292
163,64,University of Massachusetts,United States of America,2012,80.1,58.3,54.0,61.1,13.0,0.11,0.49,42.391157,-72.526712
164,65,McMaster University,Canada,2012,85.5,49.9,41.9,61.0,19.3,0.15,0.53,43.260879,-79.919225
165,66,University of Bristol,United Kingdom,2012,89.9,47.7,44.2,60.9,14.0,0.25,0.53,51.458417,-2.602979
166,67,KU Leuven,Belgium,2012,63.0,64.7,52.5,60.8,41.9,0.18,0.54,50.878,4.7003
167,68,Utrecht University,Netherlands,2012,85.7,53.2,42.8,60.4,15.4,0.07,0.59,52.0902,5.1226
168,69,University of Göttingen,Germany,2012,84.1,50.9,51.4,60.3,25.6,0.12,0.51,51.540812,9.9374
169,70,Vanderbilt University,United States of America,2012,86.8,47.6,52.1,59.6,3.6,0.1,0.52,36.144703,-86.802655
170,71,Tsinghua University,China,2012,37.4,70.1,74.1,59.5,13.7,0.1,0.32,39.999667,116.326444
171,72,Rice University,United States of America,2012,99.9,38.0,45.9,59.0,9.0,0.26,0.44,29.717394,-95.401831
172,73,Heidelberg University,Germany,2012,78.5,41.5,57.1,58.7,24.5,0.17,0.55,41.114304,-83.16640699999998
173,74,The University of Queensland,Australia,2012,70.2,52.3,47.5,58.6,32.7,0.27,0.53,-27.495431,153.01203
174,75,Emory University,United States of America,2012,90.9,39.8,48.4,57.4,4.5,0.18,0.56,33.792519,-84.323999
175,75,Wageningen University and Research Center,Netherlands,2012,66.3,47.6,50.1,57.4,17.0,0.21,0.56,51.9846,5.6658
176,77,Tufts University,United States of America,2012,94.5,37.4,45.8,57.3,10.0,0.14,0.54,42.407484,-71.119023
177,77,University of Colorado Boulder,United States of America,2012,98.2,42.6,39.5,57.3,16.1,0.08,0.45,40.007581,-105.265942
178,79,Leiden University,Netherlands,2012,71.7,55.3,45.4,57.0,17.1,0.1,0.59,52.1571,4.4852
179,80,Lund University,Sweden,2012,72.8,58.5,40.4,56.9,11.5,0.15,0.0,55.711948,13.203493
180,81,"Rutgers, the State University of New Jersey",United States of America,2012,69.0,60.0,51.6,56.8,17.3,0.08,0.51,40.4982,-74.4468
181,81,University of Rochester,United States of America,2012,94.5,33.5,47.0,56.8,4.5,0.26,0.49,43.1306,-77.626
182,83,Durham University,United Kingdom,2012,96.2,37.9,32.5,56.4,15.7,0.24,0.54,54.764986,-1.578203
183,84,Pierre and Marie Curie University,France,2012,81.1,30.5,56.3,56.0,8.7,0.18,0.48,48.8471,2.3575
184,85,University of St Andrews,United Kingdom,2012,83.0,40.2,37.1,55.7,12.7,0.47,0.56,56.3417,-2.7928
185,86,"University of California, Irvine",United States of America,2012,93.5,42.3,36.2,55.4,16.1,0.16,0.52,33.640495,-117.844296
186,87,Uppsala University,Sweden,2012,53.3,65.1,47.2,55.2,18.2,0.12,0.57,59.8509,17.63
187,88,Technical University of Munich,Germany,2012,76.3,37.1,50.0,55.1,31.5,0.2,0.33,48.1497,11.5679
188,89,University of Notre Dame,United States of America,2012,94.1,36.2,42.6,55.0,13.8,0.1,0.44,41.705572,-86.235339
189,90,Dartmouth College,United States of America,2012,89.9,38.7,44.8,54.9,6.6,0.16,0.47,43.704441,-72.28869300000002
190,91,University of Helsinki,Finland,2012,75.1,54.2,39.3,54.8,15.1,0.06,0.66,60.1726,24.951
191,92,University of Amsterdam,Netherlands,2012,68.3,54.7,41.7,54.7,14.4,0.11,0.53,52.3558,4.9557
192,93,Case Western Reserve University,United States of America,2012,78.4,40.2,54.2,54.6,6.4,0.17,0.48,41.504341,-81.608384
193,94,Korea Advanced Institute of Science and Technology (KAIST),South Korea,2012,47.1,54.6,64.2,54.5,10.0,0.09,0.2,36.369392,127.364025
194,94,"University of Maryland, College Park",United States of America,2012,85.8,43.6,41.1,54.5,8.4,0.09,0.48,38.986918,-76.942554
195,96,Michigan State University,United States of America,2012,73.6,49.6,47.4,54.4,15.7,0.15,0.51,42.7018,-84.4822
196,97,University of Arizona,United States of America,2012,78.3,43.0,45.1,54.2,12.7,0.08,0.52,32.231885,-110.950109
197,98,Purdue University,United States of America,2012,57.8,49.4,56.6,54.0,18.1,0.22,0.42,40.4237,-86.9212
198,99,University of Sussex,United Kingdom,2012,92.0,34.8,30.6,53.9,17.4,0.35,0.54,50.86709000000001,-0.08791399999999999
199,100,University of Alberta,Canada,2012,51.7,54.4,50.6,53.7,21.6,0.23,0.55,53.5232,-113.5263
200,1,California Institute of Technology,United States of America,2013,99.7,99.4,96.3,95.5,6.9,0.27,0.33,34.137658,-118.125269
201,2,Stanford University,United States of America,2013,99.3,98.8,95.0,93.7,7.8,0.22,0.42,37.427475,-122.169719
202,2,University of Oxford,United Kingdom,2013,95.6,98.1,89.7,93.7,11.6,0.34,0.46,51.75663400000001,-1.254704
203,4,Harvard University,United States of America,2013,99.2,98.6,94.9,93.6,8.9,0.25,0.0,42.380098,-71.116629
204,5,Massachusetts Institute of Technology,United States of America,2013,99.9,89.2,92.9,93.1,9.0,0.33,0.37,42.360091,-71.09416
205,6,Princeton University,United States of America,2013,99.8,99.4,89.5,92.7,8.4,0.27,0.45,40.343989,-74.651448
206,7,University of Cambridge,United Kingdom,2013,96.2,95.6,91.2,92.6,11.8,0.34,0.46,52.204267,0.114908
207,8,Imperial College London,United Kingdom,2013,93.0,90.9,88.0,90.6,11.7,0.51,0.37,51.4988,-0.174877
208,9,"University of California, Berkeley",United States of America,2013,99.3,99.3,85.1,90.5,16.4,0.15,0.5,37.871899,-122.25854
209,10,University of Chicago,United States of America,2013,98.7,92.9,89.6,90.4,6.9,0.21,0.42,41.788608,-87.598713
210,11,Yale University,United States of America,2013,94.8,92.5,93.2,89.2,4.4,0.2,0.5,41.316324,-72.92234300000001
211,12,ETH Zurich – Swiss Federal Institute of Technology Zurich,Switzerland,2013,86.6,92.7,82.5,87.8,14.7,0.37,0.31,47.376313,8.54767
212,13,"University of California, Los Angeles",United States of America,2013,95.9,93.8,87.3,87.7,10.3,0.15,0.52,34.068921,-118.445181
213,14,Columbia University,United States of America,2013,96.1,82.0,89.7,87.0,5.9,0.28,0.0,40.807536,-73.96257299999998
214,15,University of Pennsylvania,United States of America,2013,96.2,89.4,90.0,86.6,6.5,0.2,0.51,-75.193214,-75.193214
215,16,Johns Hopkins University,United States of America,2013,95.3,85.5,81.8,85.6,3.6,0.23,0.5,39.329901,-76.620518
216,17,University College London,United Kingdom,2013,86.8,88.8,83.5,85.5,10.7,0.46,0.56,51.524559,-0.13404000000000002
217,18,Cornell University,United States of America,2013,91.8,92.1,77.0,83.3,10.2,0.19,0.48,42.453449,-76.47350300000002
218,19,Northwestern University,United States of America,2013,98.2,87.3,77.6,83.1,13.8,0.15,0.48,42.056459,-87.675267
219,20,University of Michigan,United States of America,2013,91.6,91.4,76.1,82.6,9.0,0.16,0.48,42.278044,-83.738224
220,21,University of Toronto,Canada,2013,85.1,89.4,79.6,82.2,19.5,0.15,0.0,43.662892,-79.395656
221,22,Carnegie Mellon University,United States of America,2013,95.5,87.0,71.8,81.5,13.1,0.35,0.39,40.443466,-79.943457
222,23,Duke University,United States of America,2013,97.0,81.5,72.3,81.2,4.8,0.17,0.49,36.001426,-78.938229
223,24,University of Washington,United States of America,2013,97.0,81.3,74.7,79.9,11.8,0.13,0.53,47.655335,-122.30352
224,25,Georgia Institute of Technology,United States of America,2013,90.3,79.5,70.2,78.8,20.1,0.26,0.31,33.775618,-84.39628499999998
225,25,University of Texas at Austin,United States of America,2013,91.0,80.7,75.5,78.8,17.4,0.09,0.51,30.2849,-97.7341
226,27,University of Tokyo,Japan,2013,71.3,89.9,87.9,78.3,5.7,0.1,0.0,35.712677,139.761989
227,28,University of Melbourne,Australia,2013,83.7,82.5,68.4,77.9,23.7,0.35,0.55,-37.796369,144.961174
228,29,National University of Singapore,Singapore,2013,67.2,87.2,74.4,77.5,15.5,0.34,0.49,1.296643,103.776394
229,30,University of British Columbia,Canada,2013,84.0,80.4,69.1,77.3,17.6,0.25,0.54,49.260605,-123.245994
230,31,University of Wisconsin-Madison,United States of America,2013,88.2,80.1,76.1,76.9,10.8,0.11,0.51,43.0766,-89.4125
231,32,University of Edinburgh,United Kingdom,2013,90.8,71.3,68.4,76.1,14.1,0.36,0.58,55.944516,-3.189241
232,33,University of Illinois at Urbana-Champaign,United States of America,2013,80.8,84.9,74.2,75.8,18.7,0.2,0.47,40.101952,-88.227161
233,34,McGill University,Canada,2013,75.2,80.4,74.4,75.7,13.7,0.23,0.56,45.504785,-73.577151
234,35,"University of California, Santa Barbara",United States of America,2013,99.4,73.5,56.1,75.6,27.3,0.11,0.52,34.413963,-119.848947
235,35,University of Hong Kong,Hong Kong,2013,62.1,85.9,78.4,75.6,17.6,0.38,0.53,22.282999,114.137085
236,37,Australian National University,Australia,2013,73.5,83.5,68.6,75.4,19.2,0.35,0.52,-35.2777,149.118527
237,38,"University of California, San Diego",United States of America,2013,96.2,79.0,63.4,75.2,6.5,0.11,0.48,32.88006,-117.234014
238,39,London School of Economics and Political Science,United Kingdom,2013,66.5,80.8,70.8,73.1,,0.0,0.0,51.514408,-0.117377
239,40,École Polytechnique Fédérale de Lausanne,Switzerland,2013,95.0,57.0,62.4,73.0,10.5,0.54,0.27,46.519056,6.566758
240,41,New York University,United States of America,2013,89.2,67.4,73.8,72.8,6.8,0.19,0.55,40.729513,-73.996461
241,42,Karolinska Institute,Sweden,2013,77.3,75.7,66.3,72.4,11.5,0.22,0.7,59.348148,18.023658
242,42,University of North Carolina at Chapel Hill,United States of America,2013,90.1,69.3,70.4,72.4,7.3,0.08,0.58,35.904912,-79.046913
243,44,"University of California, Davis",United States of America,2013,82.7,71.6,67.9,71.8,13.9,0.13,0.54,38.538232,-121.76171200000002
244,44,Washington University in St Louis,United States of America,2013,95.2,62.8,66.0,71.8,5.7,0.17,0.0,38.648789,-90.310796
245,46,Peking University,China,2013,64.3,67.9,81.5,70.7,8.3,0.14,0.0,39.986913,116.305874
246,47,University of Minnesota,United States of America,2013,84.7,74.0,66.1,70.5,18.0,0.13,0.52,44.97399,-93.227729
247,48,LMU Munich,Germany,2013,85.5,66.5,65.4,70.4,15.5,0.13,0.62,48.150942,11.582443
248,49,University of Manchester,United Kingdom,2013,76.9,67.7,65.9,70.1,15.3,0.34,0.52,53.46685,-2.233884
249,50,Pohang University of Science and Technology,South Korea,2013,88.2,63.9,63.9,69.4,10.1,0.04,0.2,36.013886,129.323184
250,51,Brown University,United States of America,2013,94.1,60.3,63.7,68.9,10.1,0.19,0.0,41.826772,-71.402548
251,52,Tsinghua University,China,2013,55.2,76.4,74.5,67.1,13.7,0.1,0.32,39.999667,116.326444
252,53,Ohio State University,United States of America,2013,80.1,60.9,66.7,67.0,13.4,0.12,0.49,40.01419,-83.030914
253,54,Boston University,United States of America,2013,94.2,50.9,65.4,66.8,8.6,0.17,0.58,42.3505,-71.105399
254,54,Kyoto University,Japan,2013,57.8,74.8,77.1,66.8,5.6,0.07,0.0,35.026244,135.780822
255,56,University of Southern California,United States of America,2013,81.9,57.1,68.4,66.3,12.9,0.2,0.52,34.022352000000005,-118.285117
256,57,King’s College London,United Kingdom,2013,82.8,59.3,53.5,66.2,11.4,0.37,0.61,51.511486,-0.115997
257,58,KU Leuven,Belgium,2013,67.2,71.0,59.7,66.1,41.9,0.18,0.54,50.878,4.7003
258,59,Seoul National University,South Korea,2013,48.0,81.4,76.7,65.9,13.9,0.1,0.0,37.4599,126.9519
259,59,École Normale Supérieure,France,2013,90.3,46.9,61.6,65.9,7.9,0.2,0.46,48.842206,2.345169
260,61,Pennsylvania State University,United States of America,2013,81.4,69.2,55.0,65.8,12.4,0.12,0.46,40.7982,-77.8599
261,62,University of Sydney,Australia,2013,62.9,70.1,59.5,65.7,20.2,0.28,0.57,-33.888584,151.187347
262,62,École Polytechnique,France,2013,80.7,54.7,56.5,65.7,4.8,0.3,0.18,48.714297,2.211292
263,64,Leiden University,Netherlands,2013,78.4,67.1,54.0,65.1,17.1,0.1,0.59,52.1571,4.4852
264,65,Hong Kong University of Science and Technology,Hong Kong,2013,68.9,64.6,56.9,64.4,23.8,0.36,0.0,22.3364,114.265466
265,65,The University of Queensland,Australia,2013,69.6,66.1,54.4,64.4,32.7,0.27,0.53,-27.495431,153.01203
266,67,Utrecht University,Netherlands,2013,82.4,64.7,48.0,64.1,15.4,0.07,0.59,52.0902,5.1226
267,68,Korea Advanced Institute of Science and Technology (KAIST),South Korea,2013,58.4,68.9,69.9,64.0,10.0,0.09,0.2,36.369392,127.364025
268,69,Purdue University,United States of America,2013,63.1,71.9,59.8,63.8,18.1,0.22,0.42,40.4237,-86.9212
269,70,University of Göttingen,Germany,2013,92.5,52.5,50.0,63.2,25.6,0.12,0.51,51.540812,9.9374
270,70,Wageningen University and Research Center,Netherlands,2013,73.8,53.7,54.9,63.2,17.0,0.21,0.56,51.9846,5.6658
271,72,Erasmus University Rotterdam,Netherlands,2013,80.2,64.1,44.5,62.9,18.9,0.18,0.48,51.9175,4.5256
272,72,University of Massachusetts,United States of America,2013,77.8,62.6,57.1,62.9,13.0,0.11,0.49,42.391157,-72.526712
273,74,University of Bristol,United Kingdom,2013,85.4,51.7,50.1,62.5,14.0,0.25,0.53,51.458417,-2.602979
274,75,Rice University,United States of America,2013,100.0,39.3,49.5,62.0,9.0,0.26,0.44,29.717394,-95.401831
275,76,University of Pittsburgh,United States of America,2013,85.2,55.1,54.6,61.7,5.8,0.1,0.51,40.444353,-79.960835
276,77,Delft University of Technology,Netherlands,2013,45.1,75.1,59.9,61.6,19.4,0.25,0.26,52.0008,4.3714
277,78,Heidelberg University,Germany,2013,75.5,49.0,61.4,61.4,24.5,0.17,0.55,41.114304,-83.16640699999998
278,79,Emory University,United States of America,2013,90.9,44.4,56.7,61.3,4.5,0.18,0.56,33.792519,-84.323999
279,80,Durham University,United Kingdom,2013,93.3,44.5,42.3,60.7,15.7,0.24,0.54,54.764986,-1.578203
280,81,Pierre and Marie Curie University,France,2013,80.6,43.5,59.2,60.5,8.7,0.18,0.48,48.8471,2.3575
281,82,Lund University,Sweden,2013,77.1,61.3,43.6,60.3,11.5,0.15,0.0,55.711948,13.203493
282,83,University of Amsterdam,Netherlands,2013,75.1,61.3,45.6,60.1,14.4,0.11,0.53,52.3558,4.9557
283,84,University of Montreal,Canada,2013,60.9,57.9,54.0,59.8,20.3,0.25,0.57,45.5056,-73.6138
284,85,University of New South Wales,Australia,2013,56.7,63.8,52.6,59.6,25.9,0.33,0.47,-33.9173,151.2313
285,86,Nanyang Technological University,Singapore,2013,54.5,66.9,45.7,59.4,16.2,0.33,0.48,1.3483,103.6831
286,87,Tufts University,United States of America,2013,94.8,36.4,52.6,59.1,10.0,0.14,0.54,42.407484,-71.119023
287,88,McMaster University,Canada,2013,81.7,47.9,42.3,59.0,19.3,0.15,0.53,43.260879,-79.919225
288,89,University of Groningen,Netherlands,2013,71.6,61.0,43.8,58.8,25.6,0.12,0.52,53.2193,6.563
289,89,University of Zurich,Switzerland,2013,80.0,41.6,50.0,58.8,6.5,0.19,0.57,47.374322,8.550981
290,91,University of Colorado Boulder,United States of America,2013,97.1,44.4,42.3,58.7,16.1,0.08,0.45,40.007581,-105.265942
291,92,Paris-Sud University,France,2013,82.9,45.9,48.0,58.6,15.0,0.17,0.0,48.6977,2.1765
292,93,Ghent University,Belgium,2013,71.3,56.7,46.4,58.4,34.1,0.09,0.57,51.0466,3.7279
293,94,Michigan State University,United States of America,2013,73.8,56.8,51.8,58.3,15.7,0.15,0.51,42.7018,-84.4822
294,94,University of Notre Dame,United States of America,2013,93.5,39.6,48.3,58.3,13.8,0.1,0.44,41.705572,-86.235339
295,96,"University of California, Irvine",United States of America,2013,90.3,47.2,44.0,58.2,16.1,0.16,0.52,33.640495,-117.844296
296,97,"University of Maryland, College Park",United States of America,2013,83.9,51.4,44.9,57.9,8.4,0.09,0.48,38.986918,-76.942554
297,98,University of Arizona,United States of America,2013,76.9,53.7,47.0,57.7,12.7,0.08,0.52,32.231885,-110.950109
298,99,Humboldt University of Berlin,Germany,2013,59.5,58.7,55.4,57.5,52.5,0.16,0.0,52.5179,13.3937
299,99,Monash University,Australia,2013,60.9,60.6,47.8,57.5,40.5,0.36,0.56,-37.876823,145.045837
300,99,"Rutgers, the State University of New Jersey",United States of America,2013,69.5,61.3,50.9,57.5,17.3,0.08,0.51,40.4982,-74.4468
301,1,California Institute of Technology,United States of America,2014,99.8,98.2,94.4,94.9,6.9,0.27,0.33,34.137658,-118.125269
302,2,Harvard University,United States of America,2014,99.1,98.5,95.3,93.9,8.9,0.25,0.0,42.380098,-71.116629
303,2,University of Oxford,United Kingdom,2014,95.4,98.5,89.0,93.9,11.6,0.34,0.46,51.75663400000001,-1.254704
304,4,Stanford University,United States of America,2014,99.1,96.8,94.7,93.8,7.8,0.22,0.42,37.427475,-122.169719
305,5,Massachusetts Institute of Technology,United States of America,2014,100.0,89.0,92.9,93.0,9.0,0.33,0.37,42.360091,-71.09416
306,6,Princeton University,United States of America,2014,99.7,97.6,89.9,92.7,8.4,0.27,0.45,40.343989,-74.651448
307,7,University of Cambridge,United Kingdom,2014,95.7,95.3,90.6,92.3,11.8,0.34,0.46,52.204267,0.114908
308,8,"University of California, Berkeley",United States of America,2014,99.3,97.5,83.2,89.8,16.4,0.15,0.5,37.871899,-122.25854
309,9,University of Chicago,United States of America,2014,98.0,88.2,85.6,87.8,6.9,0.21,0.42,41.788608,-87.598713
310,10,Imperial College London,United Kingdom,2014,90.0,88.1,84.5,87.5,11.7,0.51,0.37,51.4988,-0.174877
311,11,Yale University,United States of America,2014,93.5,90.5,89.5,87.4,4.4,0.2,0.5,41.316324,-72.92234300000001
312,12,"University of California, Los Angeles",United States of America,2014,95.6,91.0,84.8,86.3,10.3,0.15,0.52,34.068921,-118.445181
313,13,Columbia University,United States of America,2014,95.6,79.1,86.6,85.2,5.9,0.28,0.0,40.807536,-73.96257299999998
314,14,ETH Zurich – Swiss Federal Institute of Technology Zurich,Switzerland,2014,85.0,88.2,77.6,84.5,14.7,0.37,0.31,47.376313,8.54767
315,15,Johns Hopkins University,United States of America,2014,95.0,85.1,75.7,83.7,3.6,0.23,0.5,39.329901,-76.620518
316,16,University of Pennsylvania,United States of America,2014,95.0,81.2,79.8,81.0,6.5,0.2,0.51,-75.193214,-75.193214
317,17,Duke University,United States of America,2014,96.7,73.0,73.9,79.3,4.8,0.17,0.49,36.001426,-78.938229
318,18,University of Michigan,United States of America,2014,90.8,86.2,70.0,79.2,9.0,0.16,0.48,42.278044,-83.738224
319,19,Cornell University,United States of America,2014,90.8,83.8,72.1,79.1,10.2,0.19,0.48,42.453449,-76.47350300000002
320,20,University of Toronto,Canada,2014,84.5,81.5,73.6,78.3,19.5,0.15,0.0,43.662892,-79.395656
321,21,University College London,United Kingdom,2014,84.1,77.5,70.5,77.6,10.7,0.46,0.56,51.524559,-0.13404000000000002
322,22,Northwestern University,United States of America,2014,97.1,76.0,70.2,77.1,13.8,0.15,0.48,42.056459,-87.675267
323,23,University of Tokyo,Japan,2014,69.8,88.0,84.7,76.4,5.7,0.1,0.0,35.712677,139.761989
324,24,Carnegie Mellon University,United States of America,2014,93.9,77.4,63.1,76.0,13.1,0.35,0.39,40.443466,-79.943457
325,25,University of Washington,United States of America,2014,95.6,69.2,65.6,73.4,11.8,0.13,0.53,47.655335,-122.30352
326,26,National University of Singapore,Singapore,2014,66.4,77.8,68.0,72.4,15.5,0.34,0.49,1.296643,103.776394
327,27,University of Texas at Austin,United States of America,2014,91.3,69.0,64.7,72.2,17.4,0.09,0.51,30.2849,-97.7341
328,28,Georgia Institute of Technology,United States of America,2014,87.9,68.6,59.4,71.6,20.1,0.26,0.31,33.775618,-84.39628499999998
329,29,University of Illinois at Urbana-Champaign,United States of America,2014,79.4,78.9,66.0,71.4,18.7,0.2,0.47,40.101952,-88.227161
330,30,University of Wisconsin-Madison,United States of America,2014,87.2,67.7,69.8,71.1,10.8,0.11,0.51,43.0766,-89.4125
331,31,University of British Columbia,Canada,2014,83.7,67.9,59.9,70.8,17.6,0.25,0.54,49.260605,-123.245994
332,32,London School of Economics and Political Science,United Kingdom,2014,69.2,74.2,65.2,69.8,,0.0,0.0,51.514408,-0.117377
333,33,"University of California, Santa Barbara",United States of America,2014,99.4,58.2,47.8,68.4,27.3,0.11,0.52,34.413963,-119.848947
334,34,University of Melbourne,Australia,2014,80.2,64.2,57.1,68.2,23.7,0.35,0.55,-37.796369,144.961174
335,35,McGill University,Canada,2014,74.5,68.1,61.5,68.1,13.7,0.23,0.56,45.504785,-73.577151
336,36,Karolinska Institute,Sweden,2014,76.0,67.7,58.1,67.8,11.5,0.22,0.7,59.348148,18.023658
337,37,École Polytechnique Fédérale de Lausanne,Switzerland,2014,95.9,48.3,52.9,67.7,10.5,0.54,0.27,46.519056,6.566758
338,38,King’s College London,United Kingdom,2014,87.6,56.8,56.2,67.6,11.4,0.37,0.61,51.511486,-0.115997
339,39,University of Edinburgh,United Kingdom,2014,87.6,56.9,56.6,67.5,14.1,0.36,0.58,55.944516,-3.189241
340,40,New York University,United States of America,2014,87.9,58.4,65.4,67.4,6.8,0.19,0.55,40.729513,-73.996461
341,40,"University of California, San Diego",United States of America,2014,96.7,63.0,52.0,67.4,6.5,0.11,0.48,32.88006,-117.234014
342,42,Washington University in St Louis,United States of America,2014,96.4,52.9,59.5,67.2,5.7,0.17,0.0,38.648789,-90.310796
343,43,University of Hong Kong,Hong Kong,2014,61.5,69.9,61.6,65.3,17.6,0.38,0.53,22.282999,114.137085
344,44,Seoul National University,South Korea,2014,47.3,79.2,76.4,65.2,13.9,0.1,0.0,37.4599,126.9519
345,45,Peking University,China,2014,62.8,58.1,72.3,65.0,8.3,0.14,0.0,39.986913,116.305874
346,46,University of Minnesota,United States of America,2014,81.2,62.7,61.4,64.9,18.0,0.13,0.52,44.97399,-93.227729
347,47,University of North Carolina at Chapel Hill,United States of America,2014,90.2,55.3,57.6,64.5,7.3,0.08,0.58,35.904912,-79.046913
348,48,Australian National University,Australia,2014,71.2,65.1,51.8,64.4,19.2,0.35,0.52,-35.2777,149.118527
349,49,Pennsylvania State University,United States of America,2014,79.4,65.9,55.3,64.2,12.4,0.12,0.46,40.7982,-77.8599
350,50,Boston University,United States of America,2014,95.3,46.1,56.5,63.5,8.6,0.17,0.58,42.3505,-71.105399
351,50,Tsinghua University,China,2014,59.9,65.9,66.8,63.5,13.7,0.1,0.32,39.999667,116.326444
352,52,Brown University,United States of America,2014,91.3,52.0,55.4,63.2,10.1,0.19,0.0,41.826772,-71.402548
353,52,Kyoto University,Japan,2014,58.2,69.5,69.5,63.2,5.6,0.07,0.0,35.026244,135.780822
354,52,"University of California, Davis",United States of America,2014,81.2,56.4,55.5,63.2,13.9,0.13,0.54,38.538232,-121.76171200000002
355,55,LMU Munich,Germany,2014,83.3,54.1,55.4,63.1,15.5,0.13,0.62,48.150942,11.582443
356,56,Korea Advanced Institute of Science and Technology (KAIST),South Korea,2014,67.0,60.0,65.6,62.9,10.0,0.09,0.2,36.369392,127.364025
357,57,Hong Kong University of Science and Technology,Hong Kong,2014,72.3,59.7,52.4,62.5,23.8,0.36,0.0,22.3364,114.265466
358,58,University of Manchester,United Kingdom,2014,77.3,52.2,54.5,62.3,15.3,0.34,0.52,53.46685,-2.233884
359,59,Ohio State University,United States of America,2014,79.4,52.9,58.3,62.0,13.4,0.12,0.49,40.01419,-83.030914
360,60,Pohang University of Science and Technology,South Korea,2014,85.7,49.0,54.2,61.7,10.1,0.04,0.2,36.013886,129.323184
361,61,KU Leuven,Belgium,2014,72.9,59.9,48.6,61.3,41.9,0.18,0.54,50.878,4.7003
362,62,Purdue University,United States of America,2014,67.0,62.5,53.7,60.7,18.1,0.22,0.42,40.4237,-86.9212
363,63,The University of Queensland,Australia,2014,73.3,58.0,43.4,59.9,32.7,0.27,0.53,-27.495431,153.01203
364,63,University of Göttingen,Germany,2014,89.6,48.8,45.1,59.9,25.6,0.12,0.51,51.540812,9.9374
365,65,Rice University,United States of America,2014,99.9,35.5,44.1,59.8,9.0,0.26,0.44,29.717394,-95.401831
366,65,École Normale Supérieure,France,2014,87.0,37.1,54.6,59.8,7.9,0.2,0.46,48.842206,2.345169
367,67,Leiden University,Netherlands,2014,84.2,53.2,41.9,59.4,17.1,0.1,0.59,52.1571,4.4852
368,68,Heidelberg University,Germany,2014,76.0,44.8,57.8,59.2,24.5,0.17,0.55,41.114304,-83.16640699999998
369,69,Delft University of Technology,Netherlands,2014,47.2,67.3,55.8,59.1,19.4,0.25,0.26,52.0008,4.3714
370,70,University of Southern California,United States of America,2014,81.2,43.2,58.7,59.0,12.9,0.2,0.52,34.022352000000005,-118.285117
371,70,École Polytechnique,France,2014,82.3,40.5,46.3,59.0,4.8,0.3,0.18,48.714297,2.211292
372,72,University of Sydney,Australia,2014,66.6,55.4,47.4,58.8,20.2,0.28,0.57,-33.888584,151.187347
373,73,Erasmus University Rotterdam,Netherlands,2014,81.2,53.3,37.8,58.1,18.9,0.18,0.48,51.9175,4.5256
374,74,University of Basel,Switzerland,2014,81.4,41.0,39.1,57.7,17.3,0.24,0.54,47.560253,7.5826
375,74,Utrecht University,Netherlands,2014,82.0,54.7,36.3,57.7,15.4,0.07,0.59,52.0902,5.1226
376,76,Nanyang Technological University,Singapore,2014,67.5,54.3,37.7,57.2,16.2,0.33,0.48,1.3483,103.6831
377,77,Wageningen University and Research Center,Netherlands,2014,74.1,44.3,43.1,56.8,17.0,0.21,0.56,51.9846,5.6658
378,78,University of Pittsburgh,United States of America,2014,84.4,45.4,48.6,56.7,5.8,0.1,0.51,40.444353,-79.960835
379,79,University of Bristol,United Kingdom,2014,84.9,41.2,39.6,56.3,14.0,0.25,0.53,51.458417,-2.602979
380,80,Durham University,United Kingdom,2014,88.2,38.3,38.3,56.1,15.7,0.24,0.54,54.764986,-1.578203
381,80,Emory University,United States of America,2014,90.8,31.6,50.4,56.1,4.5,0.18,0.56,33.792519,-84.323999
382,80,Tufts University,United States of America,2014,93.9,32.1,46.7,56.1,10.0,0.14,0.54,42.407484,-71.119023
383,83,Michigan State University,United States of America,2014,71.5,49.1,50.0,55.9,15.7,0.15,0.51,42.7018,-84.4822
384,83,University of Amsterdam,Netherlands,2014,75.0,54.1,38.3,55.9,14.4,0.11,0.53,52.3558,4.9557
385,85,Ghent University,Belgium,2014,74.9,48.9,41.0,55.5,34.1,0.09,0.57,51.0466,3.7279
386,86,Free University of Berlin,Germany,2014,64.8,58.0,43.8,55.3,39.3,0.2,0.58,52.4525,13.2897
387,87,Technical University of Munich,Germany,2014,80.7,35.2,48.2,55.2,31.5,0.2,0.33,48.1497,11.5679
388,88,Case Western Reserve University,United States of America,2014,82.8,38.6,51.0,55.0,6.4,0.17,0.48,41.504341,-81.608384
389,88,Vanderbilt University,United States of America,2014,86.5,38.7,46.8,55.0,3.6,0.1,0.52,36.144703,-86.802655
390,90,University of Notre Dame,United States of America,2014,91.8,34.7,41.2,54.7,13.8,0.1,0.44,41.705572,-86.235339
391,91,Monash University,Australia,2014,65.4,48.9,42.5,54.6,40.5,0.36,0.56,-37.876823,145.045837
392,92,McMaster University,Canada,2014,79.4,42.7,35.3,54.5,19.3,0.15,0.53,43.260879,-79.919225
393,93,"University of California, Irvine",United States of America,2014,89.7,40.8,37.1,54.1,16.1,0.16,0.52,33.640495,-117.844296
394,94,Humboldt University of Berlin,Germany,2014,68.4,48.7,45.6,53.8,52.5,0.16,0.0,52.5179,13.3937
395,95,University of Rochester,United States of America,2014,89.7,29.9,42.8,53.6,4.5,0.26,0.49,43.1306,-77.626
396,96,Pierre and Marie Curie University,France,2014,82.3,26.7,50.2,53.5,8.7,0.18,0.48,48.8471,2.3575
397,97,University of Colorado Boulder,United States of America,2014,97.3,33.3,34.2,53.4,16.1,0.08,0.45,40.007581,-105.265942
398,98,Maastricht University,Netherlands,2014,65.8,47.1,33.1,52.9,18.9,0.48,0.56,50.8471,5.6864
399,98,University of Groningen,Netherlands,2014,71.1,48.6,36.0,52.9,25.6,0.12,0.52,53.2193,6.563
400,100,University of Helsinki,Finland,2014,77.8,46.5,35.5,52.6,15.1,0.06,0.66,60.1726,24.951
401,100,University of York,United Kingdom,2014,89.4,33.2,31.7,52.6,,0.0,0.0,53.945533,-1.056167
402,1,California Institute of Technology,United States of America,2015,99.7,98.1,92.2,94.3,6.9,0.27,0.33,34.137658,-118.125269
403,2,Harvard University,United States of America,2015,98.9,98.6,92.9,93.3,8.9,0.25,0.0,42.380098,-71.116629
404,3,University of Oxford,United Kingdom,2015,95.5,97.7,88.6,93.2,11.6,0.34,0.46,51.75663400000001,-1.254704
405,4,Stanford University,United States of America,2015,99.1,96.7,91.5,92.9,7.8,0.22,0.42,37.427475,-122.169719
406,5,University of Cambridge,United Kingdom,2015,95.2,95.6,89.7,92.0,11.8,0.34,0.46,52.204267,0.114908
407,6,Massachusetts Institute of Technology,United States of America,2015,100.0,88.2,89.1,91.9,9.0,0.33,0.37,42.360091,-71.09416
408,7,Princeton University,United States of America,2015,99.6,94.7,86.6,90.9,8.4,0.27,0.45,40.343989,-74.651448
409,8,"University of California, Berkeley",United States of America,2015,99.1,96.7,84.2,89.5,16.4,0.15,0.5,37.871899,-122.25854
410,9,Imperial College London,United Kingdom,2015,89.4,88.3,84.6,87.5,11.7,0.51,0.37,51.4988,-0.174877
411,9,Yale University,United States of America,2015,94.0,90.8,88.5,87.5,4.4,0.2,0.5,41.316324,-72.92234300000001
412,11,University of Chicago,United States of America,2015,97.3,89.9,83.9,87.1,6.9,0.21,0.42,41.788608,-87.598713
413,12,"University of California, Los Angeles",United States of America,2015,95.3,90.5,82.4,85.5,10.3,0.15,0.52,34.068921,-118.445181
414,13,ETH Zurich – Swiss Federal Institute of Technology Zurich,Switzerland,2015,83.5,90.2,78.2,84.6,14.7,0.37,0.31,47.376313,8.54767
415,14,Columbia University,United States of America,2015,95.3,79.4,83.9,84.4,5.9,0.28,0.0,40.807536,-73.96257299999998
416,15,Johns Hopkins University,United States of America,2015,93.6,84.2,75.6,83.0,3.6,0.23,0.5,39.329901,-76.620518
417,16,University of Pennsylvania,United States of America,2015,94.4,82.0,79.0,81.0,6.5,0.2,0.51,-75.193214,-75.193214
418,17,University of Michigan,United States of America,2015,88.9,86.5,77.0,80.9,9.0,0.16,0.48,42.278044,-83.738224
419,18,Duke University,United States of America,2015,96.6,75.2,73.5,79.9,4.8,0.17,0.49,36.001426,-78.938229
420,19,Cornell University,United States of America,2015,91.5,83.8,71.6,79.4,10.2,0.19,0.48,42.453449,-76.47350300000002
421,20,University of Toronto,Canada,2015,83.0,85.1,74.4,79.3,19.5,0.15,0.0,43.662892,-79.395656
422,21,Northwestern University,United States of America,2015,96.9,78.9,72.7,79.2,13.8,0.15,0.48,42.056459,-87.675267
423,22,University College London,United Kingdom,2015,85.1,80.4,70.4,78.7,10.7,0.46,0.56,51.524559,-0.13404000000000002
424,23,University of Tokyo,Japan,2015,74.7,85.1,81.4,76.1,5.7,0.1,0.0,35.712677,139.761989
425,24,Carnegie Mellon University,United States of America,2015,92.0,74.9,61.6,74.3,13.1,0.35,0.39,40.443466,-79.943457
426,25,National University of Singapore,Singapore,2015,66.0,78.1,72.0,73.3,15.5,0.34,0.49,1.296643,103.776394
427,26,University of Washington,United States of America,2015,95.0,68.9,64.5,73.2,11.8,0.13,0.53,47.655335,-122.30352
428,27,Georgia Institute of Technology,United States of America,2015,85.8,71.2,62.5,72.8,20.1,0.26,0.31,33.775618,-84.39628499999998
429,28,University of Texas at Austin,United States of America,2015,91.5,72.0,64.3,72.3,17.4,0.09,0.51,30.2849,-97.7341
430,29,LMU Munich,Germany,2015,83.0,69.1,65.1,71.9,15.5,0.13,0.62,48.150942,11.582443
431,29,University of Illinois at Urbana-Champaign,United States of America,2015,77.8,79.0,67.7,71.9,18.7,0.2,0.47,40.101952,-88.227161
432,29,University of Wisconsin-Madison,United States of America,2015,87.7,71.3,67.7,71.9,10.8,0.11,0.51,43.0766,-89.4125
433,32,University of British Columbia,Canada,2015,85.3,69.0,60.5,71.8,17.6,0.25,0.54,49.260605,-123.245994
434,33,University of Melbourne,Australia,2015,80.6,70.9,60.4,71.2,23.7,0.35,0.55,-37.796369,144.961174
435,34,London School of Economics and Political Science,United Kingdom,2015,71.3,74.2,65.4,70.9,,0.0,0.0,51.514408,-0.117377
436,34,École Polytechnique Fédérale de Lausanne,Switzerland,2015,95.0,56.9,54.7,70.9,10.5,0.54,0.27,46.519056,6.566758
437,36,University of Edinburgh,United Kingdom,2015,88.3,62.9,58.9,70.4,14.1,0.36,0.58,55.944516,-3.189241
438,37,"University of California, Santa Barbara",United States of America,2015,99.2,61.4,49.4,70.0,27.3,0.11,0.52,34.413963,-119.848947
439,38,New York University,United States of America,2015,89.5,62.4,68.3,69.9,6.8,0.19,0.55,40.729513,-73.996461
440,39,McGill University,Canada,2015,76.0,69.9,63.3,69.6,13.7,0.23,0.56,45.504785,-73.577151
441,40,King’s College London,United Kingdom,2015,88.3,62.3,55.6,69.4,11.4,0.37,0.61,51.511486,-0.115997
442,41,"University of California, San Diego",United States of America,2015,96.4,66.6,52.0,68.6,6.5,0.11,0.48,32.88006,-117.234014
443,42,Washington University in St Louis,United States of America,2015,97.1,55.2,57.6,67.8,5.7,0.17,0.0,38.648789,-90.310796
444,43,University of Hong Kong,Hong Kong,2015,65.1,72.6,62.1,67.5,17.6,0.38,0.53,22.282999,114.137085
445,44,Karolinska Institute,Sweden,2015,76.8,68.0,57.1,66.8,11.5,0.22,0.7,59.348148,18.023658
446,45,Australian National University,Australia,2015,71.1,70.9,53.7,66.5,19.2,0.35,0.52,-35.2777,149.118527
447,46,University of Minnesota,United States of America,2015,82.9,64.7,59.9,65.9,18.0,0.13,0.52,44.97399,-93.227729
448,46,University of North Carolina at Chapel Hill,United States of America,2015,91.0,58.6,57.9,65.9,7.3,0.08,0.58,35.904912,-79.046913
449,48,Peking University,China,2015,63.7,61.9,70.0,65.2,8.3,0.14,0.0,39.986913,116.305874
450,49,Tsinghua University,China,2015,65.0,68.3,64.1,65.1,13.7,0.1,0.32,39.999667,116.326444
451,50,Seoul National University,South Korea,2015,48.7,77.1,75.5,64.8,13.9,0.1,0.0,37.4599,126.9519
452,51,Hong Kong University of Science and Technology,Hong Kong,2015,72.9,66.8,51.8,64.7,23.8,0.36,0.0,22.3364,114.265466
453,52,Korea Advanced Institute of Science and Technology (KAIST),South Korea,2015,71.4,63.2,63.5,64.5,10.0,0.09,0.2,36.369392,127.364025
454,52,University of Manchester,United Kingdom,2015,74.3,58.7,58.1,64.5,15.3,0.34,0.52,53.46685,-2.233884
455,54,Brown University,United States of America,2015,92.0,54.2,55.5,64.1,10.1,0.19,0.0,41.826772,-71.402548
456,55,KU Leuven,Belgium,2015,71.8,63.6,53.0,63.7,41.9,0.18,0.54,50.878,4.7003
457,55,"University of California, Davis",United States of America,2015,80.4,59.7,54.4,63.7,13.9,0.13,0.54,38.538232,-121.76171200000002
458,57,Boston University,United States of America,2015,94.4,46.7,56.4,63.6,8.6,0.17,0.58,42.3505,-71.105399
459,58,Pennsylvania State University,United States of America,2015,76.0,64.8,54.6,62.9,12.4,0.12,0.46,40.7982,-77.8599
460,59,Kyoto University,Japan,2015,57.0,68.4,70.4,62.8,5.6,0.07,0.0,35.026244,135.780822
461,60,University of Sydney,Australia,2015,69.0,60.8,52.8,62.7,20.2,0.28,0.57,-33.888584,151.187347
462,61,Nanyang Technological University,Singapore,2015,75.9,55.9,43.9,62.2,16.2,0.33,0.48,1.3483,103.6831
463,61,École Polytechnique,France,2015,79.9,47.1,50.5,62.2,4.8,0.3,0.18,48.714297,2.211292
464,63,Scuola Normale Superiore di Pisa,Italy,2015,96.4,46.0,48.2,61.9,16.5,0.05,0.28,43.7196,10.4003
465,64,Leiden University,Netherlands,2015,82.3,58.2,45.0,61.3,17.1,0.1,0.59,52.1571,4.4852
466,65,The University of Queensland,Australia,2015,74.2,58.4,45.8,61.2,32.7,0.27,0.53,-27.495431,153.01203
467,66,Pohang University of Science and Technology,South Korea,2015,84.4,49.3,52.7,61.1,10.1,0.04,0.2,36.013886,129.323184
468,67,University of Göttingen,Germany,2015,92.3,48.0,46.9,61.0,25.6,0.12,0.51,51.540812,9.9374
469,68,Ohio State University,United States of America,2015,80.4,51.1,54.0,60.7,13.4,0.12,0.49,40.01419,-83.030914
470,69,Rice University,United States of America,2015,99.9,37.1,41.7,59.8,9.0,0.26,0.44,29.717394,-95.401831
471,70,Heidelberg University,Germany,2015,81.4,45.4,52.6,59.6,24.5,0.17,0.55,41.114304,-83.16640699999998
472,71,Delft University of Technology,Netherlands,2015,42.6,71.4,55.5,59.2,19.4,0.25,0.26,52.0008,4.3714
473,72,Erasmus University Rotterdam,Netherlands,2015,82.3,53.7,39.8,59.1,18.9,0.18,0.48,51.9175,4.5256
474,73,Wageningen University and Research Center,Netherlands,2015,77.5,46.8,44.3,59.0,17.0,0.21,0.56,51.9846,5.6658
475,74,University of Bristol,United Kingdom,2015,85.1,44.7,43.7,58.9,14.0,0.25,0.53,51.458417,-2.602979
476,75,University of Basel,Switzerland,2015,81.4,41.1,41.2,58.4,17.3,0.24,0.54,47.560253,7.5826
477,75,University of Southern California,United States of America,2015,81.3,44.6,55.2,58.4,12.9,0.2,0.52,34.022352000000005,-118.285117
478,77,University of Amsterdam,Netherlands,2015,76.6,55.4,42.0,58.2,14.4,0.11,0.53,52.3558,4.9557
479,78,École Normale Supérieure,France,2015,84.8,36.2,48.7,58.1,7.9,0.2,0.46,48.842206,2.345169
480,79,Utrecht University,Netherlands,2015,80.0,54.8,38.2,58.0,15.4,0.07,0.59,52.0902,5.1226
481,80,Humboldt University of Berlin,Germany,2015,71.9,52.6,51.9,57.9,52.5,0.16,0.0,52.5179,13.3937
482,81,Free University of Berlin,Germany,2015,67.6,58.0,49.4,57.6,39.3,0.2,0.58,52.4525,13.2897
483,82,Michigan State University,United States of America,2015,74.0,49.4,51.1,57.3,15.7,0.15,0.51,42.7018,-84.4822
484,83,Durham University,United Kingdom,2015,88.9,40.7,37.2,56.9,15.7,0.24,0.54,54.764986,-1.578203
485,83,Monash University,Australia,2015,65.7,54.4,43.7,56.9,40.5,0.36,0.56,-37.876823,145.045837
486,85,Middle East Technical University,Turkey,2015,92.0,36.9,45.5,56.6,22.2,0.07,0.44,39.8921,32.7786
487,86,University of Arizona,United States of America,2015,74.0,51.4,44.9,56.5,12.7,0.08,0.52,32.231885,-110.950109
488,86,University of Notre Dame,United States of America,2015,90.0,38.5,43.3,56.5,13.8,0.1,0.44,41.705572,-86.235339
489,88,Tufts University,United States of America,2015,92.9,33.9,43.6,56.4,10.0,0.14,0.54,42.407484,-71.119023
490,88,"University of California, Irvine",United States of America,2015,89.5,41.7,39.5,56.4,16.1,0.16,0.52,33.640495,-117.844296
491,90,Ghent University,Belgium,2015,73.8,51.6,42.5,56.2,34.1,0.09,0.57,51.0466,3.7279
492,91,University of Massachusetts,United States of America,2015,78.7,49.1,44.8,56.1,13.0,0.11,0.49,42.391157,-72.526712
493,91,University of Pittsburgh,United States of America,2015,84.4,46.3,45.2,56.1,5.8,0.1,0.51,40.444353,-79.960835
494,93,Emory University,United States of America,2015,89.5,32.4,49.0,55.5,4.5,0.18,0.56,33.792519,-84.323999
495,94,McMaster University,Canada,2015,78.8,43.2,38.1,55.3,19.3,0.15,0.53,43.260879,-79.919225
496,94,University of Glasgow,United Kingdom,2015,83.7,40.5,37.0,55.3,16.0,0.29,0.57,55.8721,-4.2882
497,96,Vanderbilt University,United States of America,2015,87.7,38.2,46.0,55.2,3.6,0.1,0.52,36.144703,-86.802655
498,97,University of Colorado Boulder,United States of America,2015,97.4,38.3,35.0,55.1,16.1,0.08,0.45,40.007581,-105.265942
499,98,Stockholm University,Sweden,2015,90.9,45.0,30.1,54.6,23.7,0.08,0.62,59.3628,18.0593
500,98,Technical University of Munich,Germany,2015,78.8,37.4,45.6,54.6,31.5,0.2,0.33,48.1497,11.5679
501,98,Uppsala University,Sweden,2015,70.9,53.0,40.2,54.6,18.2,0.12,0.57,59.8509,17.63
502,1,California Institute of Technology,United States of America,2016,99.8,97.6,95.6,95.2,6.9,0.27,0.33,34.137658,-118.125269
503,2,University of Oxford,United Kingdom,2016,98.8,98.9,86.5,94.2,11.6,0.34,0.46,51.75663400000001,-1.254704
504,3,Stanford University,United States of America,2016,99.9,96.2,92.5,93.9,7.8,0.22,0.42,37.427475,-122.169719
505,4,University of Cambridge,United Kingdom,2016,97.0,96.7,88.2,92.8,11.8,0.34,0.46,52.204267,0.114908
506,5,Massachusetts Institute of Technology,United States of America,2016,99.7,88.6,89.4,92.0,9.0,0.33,0.37,42.360091,-71.09416
507,6,Harvard University,United States of America,2016,99.8,99.0,83.6,91.6,8.9,0.25,0.0,42.380098,-71.116629
508,7,Princeton University,United States of America,2016,99.3,91.9,85.1,90.1,8.4,0.27,0.45,40.343989,-74.651448
509,8,Imperial College London,United Kingdom,2016,96.7,88.5,83.3,89.1,11.7,0.51,0.37,51.4988,-0.174877
510,9,ETH Zurich – Swiss Federal Institute of Technology Zurich,Switzerland,2016,91.1,95.0,77.0,88.3,14.7,0.37,0.31,47.376313,8.54767
511,10,University of Chicago,United States of America,2016,99.2,88.9,85.7,87.9,6.9,0.21,0.42,41.788608,-87.598713
512,11,Johns Hopkins University,United States of America,2016,98.2,90.4,77.6,87.6,3.6,0.23,0.5,39.329901,-76.620518
513,12,Yale University,United States of America,2016,97.2,87.8,86.5,87.4,4.4,0.2,0.5,41.316324,-72.92234300000001
514,13,"University of California, Berkeley",United States of America,2016,99.7,91.1,80.4,87.2,16.4,0.15,0.5,37.871899,-122.25854
515,14,University College London,United Kingdom,2016,94.2,91.0,78.1,87.1,10.7,0.46,0.56,51.524559,-0.13404000000000002
516,15,Columbia University,United States of America,2016,98.1,82.2,85.9,86.1,5.9,0.28,0.0,40.807536,-73.96257299999998
517,16,"University of California, Los Angeles",United States of America,2016,98.5,88.6,80.8,85.8,10.3,0.15,0.52,34.068921,-118.445181
518,17,University of Pennsylvania,United States of America,2016,98.6,86.9,82.0,85.2,6.5,0.2,0.51,-75.193214,-75.193214
519,18,Cornell University,United States of America,2016,97.2,86.1,77.9,84.0,10.2,0.19,0.48,42.453449,-76.47350300000002
520,19,University of Toronto,Canada,2016,90.9,89.3,75.9,83.9,19.5,0.15,0.0,43.662892,-79.395656
521,20,Duke University,United States of America,2016,99.0,78.0,76.0,82.7,4.8,0.17,0.49,36.001426,-78.938229
522,21,University of Michigan,United States of America,2016,94.4,85.2,76.8,82.4,9.0,0.16,0.48,42.278044,-83.738224
523,22,Carnegie Mellon University,United States of America,2016,99.1,88.8,67.4,82.3,13.1,0.35,0.39,40.443466,-79.943457
524,23,London School of Economics and Political Science,United Kingdom,2016,94.3,80.6,69.8,81.3,,0.0,0.0,51.514408,-0.117377
525,24,University of Edinburgh,United Kingdom,2016,96.3,77.2,68.6,80.3,14.1,0.36,0.58,55.944516,-3.189241
526,25,Northwestern University,United States of America,2016,96.5,78.4,69.8,79.5,13.8,0.15,0.48,42.056459,-87.675267
527,26,National University of Singapore,Singapore,2016,79.4,84.5,71.7,79.2,15.5,0.34,0.49,1.296643,103.776394
528,27,King’s College London,United Kingdom,2016,93.8,75.8,64.5,78.2,11.4,0.37,0.61,51.511486,-0.115997
529,28,Karolinska Institute,Sweden,2016,92.2,81.1,60.6,77.5,11.5,0.22,0.7,59.348148,18.023658
530,29,LMU Munich,Germany,2016,85.7,77.4,70.5,77.3,15.5,0.13,0.62,48.150942,11.582443
531,30,New York University,United States of America,2016,95.3,72.3,74.7,77.2,6.8,0.19,0.55,40.729513,-73.996461
532,31,École Polytechnique Fédérale de Lausanne,Switzerland,2016,94.6,67.5,61.3,76.1,10.5,0.54,0.27,46.519056,6.566758
533,32,University of Washington,United States of America,2016,98.6,70.0,67.1,75.6,11.8,0.13,0.53,47.655335,-122.30352
534,33,University of Melbourne,Australia,2016,86.6,75.5,62.0,75.4,23.7,0.35,0.55,-37.796369,144.961174
535,34,University of British Columbia,Canada,2016,91.5,73.2,60.2,75.3,17.6,0.25,0.54,49.260605,-123.245994
536,35,KU Leuven,Belgium,2016,87.3,76.9,59.9,74.8,41.9,0.18,0.54,50.878,4.7003
537,36,University of Illinois at Urbana-Champaign,United States of America,2016,86.8,81.2,64.5,74.5,18.7,0.2,0.47,40.101952,-88.227161
538,37,Heidelberg University,Germany,2016,88.2,69.6,68.8,74.4,24.5,0.17,0.55,41.114304,-83.16640699999998
539,38,McGill University,Canada,2016,78.9,72.1,66.1,72.6,13.7,0.23,0.56,45.504785,-73.577151
540,39,"University of California, San Diego",United States of America,2016,98.7,69.8,56.9,72.2,6.5,0.11,0.48,32.88006,-117.234014
541,39,"University of California, Santa Barbara",United States of America,2016,99.2,66.0,52.6,72.2,27.3,0.11,0.52,34.413963,-119.848947
542,41,Georgia Institute of Technology,United States of America,2016,86.0,72.7,57.8,72.1,20.1,0.26,0.31,33.775618,-84.39628499999998
543,42,Peking University,China,2016,69.1,72.4,77.8,72.0,8.3,0.14,0.0,39.986913,116.305874
544,43,University of Tokyo,Japan,2016,60.9,83.0,81.4,71.1,5.7,0.1,0.0,35.712677,139.761989
545,44,"University of California, Davis",United States of America,2016,84.3,72.7,60.1,71.0,13.9,0.13,0.54,38.538232,-121.76171200000002
546,44,University of Hong Kong,Hong Kong,2016,70.1,72.8,64.6,71.0,17.6,0.38,0.53,22.282999,114.137085
547,46,University of Texas at Austin,United States of America,2016,92.2,69.7,59.3,70.3,17.4,0.09,0.51,30.2849,-97.7341
548,47,Tsinghua University,China,2016,58.8,83.0,73.3,70.0,13.7,0.1,0.32,39.999667,116.326444
549,47,Wageningen University and Research Center,Netherlands,2016,87.8,66.9,52.6,70.0,17.0,0.21,0.56,51.9846,5.6658
550,49,Humboldt University of Berlin,Germany,2016,73.6,77.0,63.7,69.9,52.5,0.16,0.0,52.5179,13.3937
551,50,University of Wisconsin-Madison,United States of America,2016,86.6,68.2,65.1,69.7,10.8,0.11,0.51,43.0766,-89.4125
552,51,Brown University,United States of America,2016,96.4,55.7,62.8,69.6,10.1,0.19,0.0,41.826772,-71.402548
553,52,Australian National University,Australia,2016,72.3,77.3,54.7,69.5,19.2,0.35,0.52,-35.2777,149.118527
554,53,Technical University of Munich,Germany,2016,80.1,66.0,61.0,69.4,31.5,0.2,0.33,48.1497,11.5679
555,54,École Normale Supérieure,France,2016,87.1,47.7,70.6,69.0,7.9,0.2,0.46,48.842206,2.345169
556,55,Nanyang Technological University,Singapore,2016,85.6,61.3,48.4,68.2,16.2,0.33,0.48,1.3483,103.6831
557,56,University of Manchester,United Kingdom,2016,77.3,66.0,58.4,68.1,15.3,0.34,0.52,53.46685,-2.233884
558,56,University of Sydney,Australia,2016,77.5,68.1,54.3,68.1,20.2,0.28,0.57,-33.888584,151.187347
559,58,University of Amsterdam,Netherlands,2016,87.4,64.7,52.2,67.8,14.4,0.11,0.53,52.3558,4.9557
560,59,Hong Kong University of Science and Technology,Hong Kong,2016,82.6,66.1,49.4,67.2,23.8,0.36,0.0,22.3364,114.265466
561,60,The University of Queensland,Australia,2016,82.4,62.8,49.2,67.0,32.7,0.27,0.53,-27.495431,153.01203
562,60,Washington University in St Louis,United States of America,2016,99.2,55.6,54.3,67.0,5.7,0.17,0.0,38.648789,-90.310796
563,62,Utrecht University,Netherlands,2016,88.1,64.3,48.1,66.6,15.4,0.07,0.59,52.0902,5.1226
564,63,University of North Carolina at Chapel Hill,United States of America,2016,95.9,54.5,58.0,66.4,7.3,0.08,0.58,35.904912,-79.046913
565,64,Boston University,United States of America,2016,97.7,49.5,57.8,66.1,8.6,0.17,0.58,42.3505,-71.105399
566,65,Delft University of Technology,Netherlands,2016,61.5,73.8,55.0,65.9,19.4,0.25,0.26,52.0008,4.3714
567,65,University of Minnesota,United States of America,2016,88.0,61.0,53.5,65.9,18.0,0.13,0.52,44.97399,-93.227729
568,67,Leiden University,Netherlands,2016,85.2,63.1,50.5,65.7,17.1,0.1,0.59,52.1571,4.4852
569,68,University of Southern California,United States of America,2016,93.0,58.9,49.3,65.5,12.9,0.2,0.52,34.022352000000005,-118.285117
570,69,University of Bristol,United Kingdom,2016,91.2,51.6,47.6,64.3,14.0,0.25,0.53,51.458417,-2.602979
571,70,Durham University,United Kingdom,2016,87.7,51.9,47.9,63.6,15.7,0.24,0.54,54.764986,-1.578203
572,71,Erasmus University Rotterdam,Netherlands,2016,95.6,55.2,37.2,63.5,18.9,0.18,0.48,51.9175,4.5256
573,72,Free University of Berlin,Germany,2016,60.2,72.2,57.9,63.2,39.3,0.2,0.58,52.4525,13.2897
574,73,Monash University,Australia,2016,73.3,58.5,48.1,62.5,40.5,0.36,0.56,-37.876823,145.045837
575,74,University of Groningen,Netherlands,2016,84.0,56.9,43.3,62.4,25.6,0.12,0.52,53.2193,6.563
576,75,Pennsylvania State University,United States of America,2016,80.5,61.9,50.4,62.3,12.4,0.12,0.46,40.7982,-77.8599
577,76,University of Glasgow,United Kingdom,2016,92.3,48.3,41.6,61.9,16.0,0.29,0.57,55.8721,-4.2882
578,76,University of Helsinki,Finland,2016,82.1,60.4,48.4,61.9,15.1,0.06,0.66,60.1726,24.951
579,78,University of Tübingen,Germany,2016,79.3,59.8,47.0,61.7,38.9,0.12,0.58,48.5295,9.0438
580,79,University of Pittsburgh,United States of America,2016,92.3,50.3,50.6,61.5,5.8,0.1,0.51,40.444353,-79.960835
581,80,University of Warwick,United Kingdom,2016,78.2,53.1,47.4,61.3,16.6,0.37,0.48,52.3793,-1.5615
582,81,Uppsala University,Sweden,2016,80.9,61.0,44.1,61.2,18.2,0.12,0.57,59.8509,17.63
583,82,University of Copenhagen,Denmark,2016,86.2,42.7,49.8,61.0,4.1,0.19,0.67,55.6802,12.5724
584,82,University of New South Wales,Australia,2016,82.1,53.9,40.7,61.0,25.9,0.33,0.47,-33.9173,151.2313
585,84,University of Freiburg,Germany,2016,80.5,51.1,47.4,60.7,31.2,0.16,0.52,47.9935,7.8459
586,85,Seoul National University,South Korea,2016,50.0,70.5,66.5,60.5,13.9,0.1,0.0,37.4599,126.9519
587,86,University of St Andrews,United Kingdom,2016,78.8,47.3,49.7,60.4,12.7,0.47,0.56,56.3417,-2.7928
588,87,Vanderbilt University,United States of America,2016,95.7,44.2,47.8,60.1,3.6,0.1,0.52,36.144703,-86.802655
589,88,Kyoto University,Japan,2016,46.6,69.3,70.6,59.9,5.6,0.07,0.0,35.026244,135.780822
590,88,Maastricht University,Netherlands,2016,82.7,47.7,37.5,59.9,18.9,0.48,0.56,50.8471,5.6864
591,90,Emory University,United States of America,2016,96.7,37.1,48.3,59.7,4.5,0.18,0.56,33.792519,-84.323999
592,90,Lund University,Sweden,2016,81.3,53.6,39.7,59.7,11.5,0.15,0.0,55.711948,13.203493
593,90,Ohio State University,United States of America,2016,83.2,46.6,51.6,59.7,13.4,0.12,0.49,40.01419,-83.030914
594,93,University of Exeter,United Kingdom,2016,94.3,40.0,39.4,59.5,18.8,0.28,0.54,50.7371,-3.5351
595,94,Georgetown University,United States of America,2016,82.5,39.3,54.4,58.8,8.5,0.14,0.53,38.9076,-77.0723
596,94,McMaster University,Canada,2016,84.9,44.8,39.8,58.8,19.3,0.15,0.53,43.260879,-79.919225
597,94,University of Bonn,Germany,2016,85.3,47.5,45.1,58.8,70.4,0.13,0.55,50.7268,7.0865
598,97,University of Sheffield,United Kingdom,2016,80.1,48.8,42.4,58.6,15.5,0.31,0.5,53.3809,-1.4879
599,98,Queen Mary University of London,United Kingdom,2016,93.3,41.3,34.1,58.5,14.0,0.4,0.52,51.5241,-0.0404
600,99,Michigan State University,United States of America,2016,76.8,52.6,47.3,58.0,15.7,0.15,0.51,42.7018,-84.4822
601,99,University of Göttingen,Germany,2016,72.7,54.5,49.3,58.0,25.6,0.12,0.51,51.540812,9.9374
